[
    {
        "id":1,
        "lat":10.7670192,
        "lng":106.6813071,
        "title":"Ca Chep BookStore",
        "image":"ns-cachep",
        "address":"223 Nguyen Thi Minh Khai Street, Ward Nguyen Cu Trinh, District 1, HCM City",
        "rating":"4.5",
        "hours":"08:00 - 21:30",
        "phone":"028 392 500 69",
    }
    ,
    {
        "id":2,
        "lat":10.7903292,
        "lng":106.7026808,
        "title":"Hai An BookStore",
        "image":"ns-ha",
        "address":"2B Nguyen Thi Minh Khai Street, Ward Da Kao, District 1, HCM City",
        "rating":"4.5",
        "hours":"07:30 – 22:15",
        "phone":"028 222 992 61",
    }
    ,
    {
        "id":3,
        "lat":10.7922637,
        "lng":106.7010854,
        "title":"Artbook BookStore",
        "image":"ns-art",
        "address":"1B1 Nguyen Đinh Chieu Street, Ward Da Kao, District 1, HCM City",
        "rating":"4.4",
        "hours":"09:00 – 18:00",
        "phone":"028 391 035 18",
    },
    {
        "id":4,
        "lat":10.828917,
        "lng":106.6762487,
        "title":"Phuong Nam BookStore",
        "image":"ns-no",
        "address":"3 Nguyen Oanh Street, Ward 10, Go Vap District, HCM City.",
        "rating":"4.4",
        "hours":"08:00 – 22:00",
        "phone":"028 398 966 64",
    },
    {
        "id":5,
        "lat":10.8162688,
        "lng":106.6783082,
        "title":"Ebook BookStore",
        "image":"ns-eb",
        "address":"86A Nguyen Thai Son Street, Go Vap District, HCM City.",
        "rating":"4.5",
        "hours":"09:00 – 21:00",
        "phone":"083 899 66 22",
    },
    {
        "id":6,
        "lat":10.7601563,
        "lng":106.6865735,
        "title":"Xuan Thu BookStore",
        "image":"ns-xt",
        "address":"391A Tran Hung Đao Street, District 1, HCM City.",
        "rating":"4.4",
        "hours":"08:00 - 22:00",
        "phone":"028 392 09 329",
    },
    {
        "id":7,
        "lat":10.7809702,
        "lng":106.6979183,
        "title":"Nguyen Van Binh BookStore",
        "image":"ns-nvb",
        "address":"Nguyen Van Bình Street, Ben Nghe Ward, District 1, HCM City.",
        "rating":"4.6",
        "hours":"08:00 - 22:00",
        "phone":"093 201 61 09",
    },
    {
        "id":8,
        "lat":10.7673487,
        "lng":106.6851966,
        "title":"Kim Dong BookStore",
        "image":"ns-kd",
        "address":"248 Cong Quynh Street, Pham Ngu Lao Ward, District 1, HCM City.",
        "rating":"4.7",
        "hours":"08:00 - 20:00",
        "phone":"028 392 50 170",
    },
    
    
]
